{
  "330": {
    "address": {
      "name": "ROSSMANN Drogeriemarkt",
      "street": "Am Ostbahnhof 9/1.03",
      "zip": "10243",
      "city": "Berlin"
    },
    "location": {
      "lat": 52.51002305,
      "lon": 13.4336757
    }
  },
  "331": {
    "address": {
      "name": "ROSSMANN Drogeriemarkt",
      "street": "Dircksenstr. 2",
      "zip": "10179",
      "city": "Berlin"
    },
    "location": {
      "lat": 52.520454,
      "lon": 13.413449
    }
  },
  "340": {
    "address": {
      "name": "ROSSMANN Drogeriemarkt",
      "street": "Janusz-Korczak-Str. 25",
      "zip": "12627",
      "city": "Berlin"
    },
    "location": {
      "lat": 52.538766,
      "lon": 13.603956
    }
  },
  "356": {
    "address": {
      "name": "ROSSMANN Drogeriemarkt",
      "street": "Berliner Allee 79",
      "zip": "13088",
      "city": "Berlin"
    },
    "location": {
      "lat": 52.549534,
      "lon": 13.45576
    }
  },
  "359": {
    "address": {
      "name": "ROSSMANN Drogeriemarkt",
      "street": "Berliner Allee 44",
      "zip": "13088",
      "city": "Berlin"
    },
    "location": {
      "lat": 52.548357,
      "lon": 13.452187
    }
  },
  "371": {
    "address": {
      "name": "ROSSMANN Drogeriemarkt",
      "street": "Brunsbütteler Damm 275",
      "zip": "13591",
      "city": "Berlin"
    },
    "location": {
      "lat": 52.53278,
      "lon": 13.15522
    }
  },
  "378": {
    "address": {
      "name": "ROSSMANN Drogeriemarkt",
      "street": "Leonorenstr. 98",
      "zip": "12247",
      "city": "Berlin"
    },
    "location": {
      "lat": 52.436802,
      "lon": 13.344977
    }
  },
  "381": {
    "address": {
      "name": "ROSSMANN Drogeriemarkt",
      "street": "Weitlingstr. 22",
      "zip": "10317",
      "city": "Berlin"
    },
    "location": {
      "lat": 52.509435,
      "lon": 13.497465
    }
  },
  "382": {
    "address": {
      "name": "ROSSMANN Drogeriemarkt",
      "street": "Hellersdorfer Str. 77-83",
      "zip": "12619",
      "city": "Berlin"
    },
    "location": {
      "lat": 52.56808365,
      "lon": 13.5425397
    }
  },
  "395": {
    "address": {
      "name": "ROSSMANN Drogeriemarkt",
      "street": "Greifswalder Str. 208",
      "zip": "10405",
      "city": "Berlin"
    },
    "location": {
      "lat": 52.532547,
      "lon": 13.428345
    }
  },
  "398": {
    "address": {
      "name": "ROSSMANN Drogeriemarkt",
      "street": "Karl-Marx-Allee 86/88",
      "zip": "10243",
      "city": "Berlin"
    },
    "location": {
      "lat": 52.51835345,
      "lon": 13.4348328
    }
  },
  "431": {
    "address": {
      "name": "ROSSMANN Drogeriemarkt",
      "street": "Torstr. 49",
      "zip": "10119",
      "city": "Berlin"
    },
    "location": {
      "lat": 52.528973,
      "lon": 13.410059
    }
  },
  "450": {
    "address": {
      "name": "ROSSMANN Drogeriemarkt",
      "street": "Warschauer Str. 73",
      "zip": "10243",
      "city": "Berlin"
    },
    "location": {
      "lat": 52.512195,
      "lon": 13.452911
    }
  },
  "479": {
    "address": {
      "name": "ROSSMANN Drogeriemarkt",
      "street": "Kurfürstendamm 101",
      "zip": "10711",
      "city": "Berlin"
    },
    "location": {
      "lat": 52.498192,
      "lon": 13.295855
    }
  },
  "496": {
    "address": {
      "name": "ROSSMANN Drogeriemarkt",
      "street": "Otto-Suhr-Allee 94",
      "zip": "10585",
      "city": "Berlin"
    },
    "location": {
      "lat": 52.516887,
      "lon": 13.309166
    }
  },
  "531": {
    "address": {
      "name": "ROSSMANN Drogeriemarkt",
      "street": "Reichsstr. 85",
      "zip": "14052",
      "city": "Berlin"
    },
    "location": {
      "lat": 52.515207,
      "lon": 13.261995
    }
  },
  "535": {
    "address": {
      "name": "ROSSMANN Drogeriemarkt",
      "street": "Residenzstr. 42",
      "zip": "13409",
      "city": "Berlin"
    },
    "location": {
      "lat": 52.565488,
      "lon": 13.363094
    }
  },
  "545": {
    "address": {
      "name": "ROSSMANN Drogeriemarkt",
      "street": "Schloßstr. 2",
      "zip": "13507",
      "city": "Berlin"
    },
    "location": {
      "lat": 52.590927,
      "lon": 13.283373
    }
  },
  "581": {
    "address": {
      "name": "ROSSMANN Drogeriemarkt",
      "street": "Baumschulenstr. 9/10",
      "zip": "12437",
      "city": "Berlin"
    },
    "location": {
      "lat": 52.4640559,
      "lon": 13.48551435
    }
  },
  "584": {
    "address": {
      "name": "ROSSMANN Drogeriemarkt",
      "street": "Müllerstr. 40",
      "zip": "13353",
      "city": "Berlin"
    },
    "location": {
      "lat": 52.549999,
      "lon": 13.353248
    }
  },
  "596": {
    "address": {
      "name": "ROSSMANN Drogeriemarkt",
      "street": "Markt 14-15",
      "zip": "13597",
      "city": "Berlin"
    },
    "location": {
      "lat": 52.537184,
      "lon": 13.204616
    }
  },
  "613": {
    "address": {
      "name": "ROSSMANN Drogeriemarkt",
      "street": "Otto-Schmirgal-Str. 1",
      "zip": "10319",
      "city": "Berlin"
    },
    "location": {
      "lat": 52.497382,
      "lon": 13.522101
    }
  },
  "629": {
    "address": {
      "name": "ROSSMANN Drogeriemarkt",
      "street": "Badstr. 4",
      "zip": "13357",
      "city": "Berlin"
    },
    "location": {
      "lat": 52.549699,
      "lon": 13.387479
    }
  },
  "631": {
    "address": {
      "name": "ROSSMANN Drogeriemarkt",
      "street": "Frankfurter Allee 113",
      "zip": "10365",
      "city": "Berlin"
    },
    "location": {
      "lat": 52.513995,
      "lon": 13.47558
    }
  },
  "645": {
    "address": {
      "name": "ROSSMANN Drogeriemarkt",
      "street": "Bruno-Taut-Str. 1",
      "zip": "12524",
      "city": "Berlin"
    },
    "location": {
      "lat": 52.41268,
      "lon": 13.572401
    }
  },
  "656": {
    "address": {
      "name": "ROSSMANN Drogeriemarkt",
      "street": "Kottbusser Damm 20",
      "zip": "10967",
      "city": "Berlin"
    },
    "location": {
      "lat": 52.491769,
      "lon": 13.4225
    }
  },
  "676": {
    "address": {
      "name": "ROSSMANN Drogeriemarkt",
      "street": "Friedrichstr. 147",
      "zip": "10117",
      "city": "Berlin"
    },
    "location": {
      "lat": 52.519552,
      "lon": 13.388055
    }
  },
  "677": {
    "address": {
      "name": "ROSSMANN Drogeriemarkt",
      "street": "Pablo-Neruda-Str. 2-4",
      "zip": "12559",
      "city": "Berlin"
    },
    "location": {
      "lat": 52.44168,
      "lon": 13.587462
    }
  },
  "687": {
    "address": {
      "name": "ROSSMANN Drogeriemarkt",
      "street": "Friedrichstr. 141a/142",
      "zip": "10117",
      "city": "Berlin"
    },
    "location": {
      "lat": 52.51887,
      "lon": 13.388376
    }
  },
  "689": {
    "address": {
      "name": "ROSSMANN Drogeriemarkt",
      "street": "Am Treptower Park 14",
      "zip": "12435",
      "city": "Berlin"
    },
    "location": {
      "lat": 52.491239,
      "lon": 13.45776
    }
  },
  "692": {
    "address": {
      "name": "ROSSMANN Drogeriemarkt",
      "street": "Schnellerstr. 21-22",
      "zip": "12439",
      "city": "Berlin"
    },
    "location": {
      "lat": 52.45551075,
      "lon": 13.51364585
    }
  },
  "803": {
    "address": {
      "name": "ROSSMANN Drogeriemarkt",
      "street": "Senftenberger Ring 15-17",
      "zip": "13439",
      "city": "Berlin"
    },
    "location": {
      "lat": 52.6019323,
      "lon": 13.3570644
    }
  },
  "807": {
    "address": {
      "name": "ROSSMANN Drogeriemarkt",
      "street": "Bismarckstr. 44",
      "zip": "10627",
      "city": "Berlin"
    },
    "location": {
      "lat": 52.51177,
      "lon": 13.305612
    }
  },
  "808": {
    "address": {
      "name": "ROSSMANN Drogeriemarkt",
      "street": "Britzer Damm 59",
      "zip": "12347",
      "city": "Berlin"
    },
    "location": {
      "lat": 52.456962,
      "lon": 13.437136
    }
  },
  "810": {
    "address": {
      "name": "ROSSMANN Drogeriemarkt",
      "street": "Greifswalder Str. 90",
      "zip": "10409",
      "city": "Berlin"
    },
    "location": {
      "lat": 52.543465,
      "lon": 13.442071
    }
  },
  "813": {
    "address": {
      "name": "ROSSMANN Drogeriemarkt",
      "street": "Richard-von-Weizsäcker-Platz 1-2",
      "zip": "10827",
      "city": "Berlin"
    },
    "location": {
      "lat": 52.4867931,
      "lon": 13.3573314
    }
  },
  "814": {
    "address": {
      "name": "ROSSMANN Drogeriemarkt",
      "street": "Klosterstr. 3",
      "zip": "13581",
      "city": "Berlin"
    },
    "location": {
      "lat": 52.533524,
      "lon": 13.198312
    }
  },
  "817": {
    "address": {
      "name": "ROSSMANN Drogeriemarkt",
      "street": "Leipziger Str. 45",
      "zip": "10117",
      "city": "Berlin"
    },
    "location": {
      "lat": 52.510567,
      "lon": 13.39636
    }
  },
  "818": {
    "address": {
      "name": "ROSSMANN Drogeriemarkt",
      "street": "Manfred-von-Richthofen-Str. 14",
      "zip": "12101",
      "city": "Berlin"
    },
    "location": {
      "lat": 52.483627,
      "lon": 13.382768
    }
  },
  "822": {
    "address": {
      "name": "ROSSMANN Drogeriemarkt",
      "street": "Prierosser Str. 32",
      "zip": "12357",
      "city": "Berlin"
    },
    "location": {
      "lat": 52.420962,
      "lon": 13.494883
    }
  },
  "823": {
    "address": {
      "name": "ROSSMANN Drogeriemarkt",
      "street": "Reichenberger Str. 175",
      "zip": "10999",
      "city": "Berlin"
    },
    "location": {
      "lat": 52.49977,
      "lon": 13.417393
    }
  },
  "826": {
    "address": {
      "name": "ROSSMANN Drogeriemarkt",
      "street": "Spandauer Damm 57",
      "zip": "14059",
      "city": "Berlin"
    },
    "location": {
      "lat": 52.51877,
      "lon": 13.288858
    }
  },
  "827": {
    "address": {
      "name": "ROSSMANN Drogeriemarkt",
      "street": "Stendaler Str. 24",
      "zip": "12627",
      "city": "Berlin"
    },
    "location": {
      "lat": 52.537714,
      "lon": 13.605031
    }
  },
  "831": {
    "address": {
      "name": "ROSSMANN Drogeriemarkt",
      "street": "Hindenburgdamm 76a",
      "zip": "12203",
      "city": "Berlin"
    },
    "location": {
      "lat": 52.448211,
      "lon": 13.31505
    }
  },
  "872": {
    "address": {
      "name": "ROSSMANN Drogeriemarkt",
      "street": "Hermann-Blankenstein-Str. 38",
      "zip": "10249",
      "city": "Berlin"
    },
    "location": {
      "lat": 52.524019,
      "lon": 13.461699
    }
  },
  "1200": {
    "address": {
      "name": "ROSSMANN Drogeriemarkt",
      "street": "Schönhauser Allee 53",
      "zip": "10437",
      "city": "Berlin"
    },
    "location": {
      "lat": 52.543171,
      "lon": 13.412716
    }
  },
  "1519": {
    "address": {
      "name": "ROSSMANN Drogeriemarkt",
      "street": "Rathausstr. 5",
      "zip": "10178",
      "city": "Berlin"
    },
    "location": {
      "lat": 52.519831,
      "lon": 13.4114
    }
  },
  "1543": {
    "address": {
      "name": "ROSSMANN Drogeriemarkt",
      "street": "Pichelsdorfer Str. 116",
      "zip": "13595",
      "city": "Berlin"
    },
    "location": {
      "lat": 52.525181,
      "lon": 13.197424
    }
  },
  "1550": {
    "address": {
      "name": "ROSSMANN Drogeriemarkt",
      "street": "Rudi-Dutschke-Str. 29",
      "zip": "10969",
      "city": "Berlin"
    },
    "location": {
      "lat": 52.506591,
      "lon": 13.390982
    }
  },
  "1553": {
    "address": {
      "name": "ROSSMANN Drogeriemarkt",
      "street": "Heinsestr. 43-45",
      "zip": "13467",
      "city": "Berlin"
    },
    "location": {
      "lat": 52.617629,
      "lon": 13.306177
    }
  },
  "1565": {
    "address": {
      "name": "ROSSMANN Drogeriemarkt",
      "street": "Hildburghauser Str. 258 a",
      "zip": "12207",
      "city": "Berlin"
    },
    "location": {
      "lat": 52.420315,
      "lon": 13.313171
    }
  },
  "1576": {
    "address": {
      "name": "ROSSMANN Drogeriemarkt",
      "street": "Karl-Marx-Str. 114-116",
      "zip": "12043",
      "city": "Berlin"
    },
    "location": {
      "lat": 52.47672905,
      "lon": 13.4382727
    }
  },
  "1584": {
    "address": {
      "name": "ROSSMANN Drogeriemarkt",
      "street": "Ansbacher Str. 18-20",
      "zip": "10787",
      "city": "Berlin"
    },
    "location": {
      "lat": 52.50701,
      "lon": 13.344487
    }
  },
  "1690": {
    "address": {
      "name": "ROSSMANN Drogeriemarkt",
      "street": "Bahnhofstr. 8",
      "zip": "12305",
      "city": "Berlin"
    },
    "location": {
      "lat": 52.386815,
      "lon": 13.405804
    }
  },
  "1700": {
    "address": {
      "name": "ROSSMANN Drogeriemarkt",
      "street": "Europaplatz 1",
      "zip": "10557",
      "city": "Berlin"
    },
    "location": {
      "lat": 52.525672,
      "lon": 13.368487
    }
  },
  "1711": {
    "address": {
      "name": "ROSSMANN Drogeriemarkt",
      "street": "Obstallee 28-30",
      "zip": "13593",
      "city": "Berlin"
    },
    "location": {
      "lat": 52.52202,
      "lon": 13.164208
    }
  },
  "1714": {
    "address": {
      "name": "ROSSMANN Drogeriemarkt",
      "street": "Breite Str. 20",
      "zip": "13187",
      "city": "Berlin"
    },
    "location": {
      "lat": 52.569842,
      "lon": 13.40406
    }
  },
  "1771": {
    "address": {
      "name": "ROSSMANN Drogeriemarkt",
      "street": "Grunerstr. 20",
      "zip": "10179",
      "city": "Berlin"
    },
    "location": {
      "lat": 52.52,
      "lon": 13.415189
    }
  },
  "1777": {
    "address": {
      "name": "ROSSMANN Drogeriemarkt",
      "street": "Bölschestr. 113",
      "zip": "12587",
      "city": "Berlin"
    },
    "location": {
      "lat": 52.450713,
      "lon": 13.623887
    }
  },
  "1823": {
    "address": {
      "name": "ROSSMANN Drogeriemarkt",
      "street": "Falkenseer Chaussee 198",
      "zip": "13589",
      "city": "Berlin"
    },
    "location": {
      "lat": 52.5509,
      "lon": 13.164045
    }
  },
  "1837": {
    "address": {
      "name": "ROSSMANN Drogeriemarkt",
      "street": "Zossener Str. 29",
      "zip": "10961",
      "city": "Berlin"
    },
    "location": {
      "lat": 52.489945,
      "lon": 13.394211
    }
  },
  "1860": {
    "address": {
      "name": "ROSSMANN Drogeriemarkt",
      "street": "Treskowallee 112",
      "zip": "10318",
      "city": "Berlin"
    },
    "location": {
      "lat": 52.48193,
      "lon": 13.525098
    }
  },
  "1883": {
    "address": {
      "name": "ROSSMANN Drogeriemarkt",
      "street": "Hermannstr. 49",
      "zip": "12049",
      "city": "Berlin"
    },
    "location": {
      "lat": 52.478242,
      "lon": 13.42561
    }
  },
  "1900": {
    "address": {
      "name": "ROSSMANN Drogeriemarkt",
      "street": "Schönhauser Allee 79",
      "zip": "10439",
      "city": "Berlin"
    },
    "location": {
      "lat": 52.549736,
      "lon": 13.41419
    }
  },
  "1951": {
    "address": {
      "name": "ROSSMANN Drogeriemarkt",
      "street": "Prenzlauer Allee 169",
      "zip": "10409",
      "city": "Berlin"
    },
    "location": {
      "lat": 52.54778,
      "lon": 13.428199
    }
  },
  "1981": {
    "address": {
      "name": "ROSSMANN Drogeriemarkt",
      "street": "Drakestr. 34",
      "zip": "12205",
      "city": "Berlin"
    },
    "location": {
      "lat": 52.443652,
      "lon": 13.296289
    }
  },
  "1996": {
    "address": {
      "name": "ROSSMANN Drogeriemarkt",
      "street": "Helene-Weigel-Platz 1",
      "zip": "12681",
      "city": "Berlin"
    },
    "location": {
      "lat": 52.526782,
      "lon": 13.539608
    }
  },
  "2183": {
    "address": {
      "name": "ROSSMANN Drogeriemarkt",
      "street": "Karl-Marx-Str. 231-235",
      "zip": "12055",
      "city": "Berlin"
    },
    "location": {
      "lat": 52.46775,
      "lon": 13.441772
    }
  },
  "2222": {
    "address": {
      "name": "ROSSMANN Drogeriemarkt",
      "street": "Landsberger Allee 277",
      "zip": "13055",
      "city": "Berlin"
    },
    "location": {
      "lat": 52.534712,
      "lon": 13.495938
    }
  },
  "2225": {
    "address": {
      "name": "ROSSMANN Drogeriemarkt",
      "street": "Mariendorfer Damm 95",
      "zip": "12109",
      "city": "Berlin"
    },
    "location": {
      "lat": 52.444265,
      "lon": 13.386279
    }
  },
  "2243": {
    "address": {
      "name": "ROSSMANN Drogeriemarkt",
      "street": "Hermann-Hesse-Str. 8",
      "zip": "13156",
      "city": "Berlin"
    },
    "location": {
      "lat": 52.580844,
      "lon": 13.401846
    }
  },
  "2248": {
    "address": {
      "name": "ROSSMANN Drogeriemarkt",
      "street": "Alt-Kaulsdorf 64",
      "zip": "12621",
      "city": "Berlin"
    },
    "location": {
      "lat": 52.504644,
      "lon": 13.590202
    }
  },
  "2287": {
    "address": {
      "name": "ROSSMANN Drogeriemarkt",
      "street": "Anton-Saefkow-Platz 8",
      "zip": "10369",
      "city": "Berlin"
    },
    "location": {
      "lat": 52.528683,
      "lon": 13.471408
    }
  },
  "2288": {
    "address": {
      "name": "ROSSMANN Drogeriemarkt",
      "street": "Prerower Platz 1",
      "zip": "13051",
      "city": "Berlin"
    },
    "location": {
      "lat": 52.564981,
      "lon": 13.506273
    }
  },
  "2388": {
    "address": {
      "name": "ROSSMANN Drogeriemarkt",
      "street": "Hönower Str. 76",
      "zip": "12623",
      "city": "Berlin"
    },
    "location": {
      "lat": 52.511453,
      "lon": 13.612498
    }
  },
  "2425": {
    "address": {
      "name": "ROSSMANN Drogeriemarkt",
      "street": "Berliner Str. 132",
      "zip": "10715",
      "city": "Berlin"
    },
    "location": {
      "lat": 52.48623,
      "lon": 13.321567
    }
  },
  "2442": {
    "address": {
      "name": "ROSSMANN Drogeriemarkt",
      "street": "Lankwitzer Str. 19-24",
      "zip": "12209",
      "city": "Berlin"
    },
    "location": {
      "lat": 52.42905125,
      "lon": 13.3303383
    }
  },
  "2501": {
    "address": {
      "name": "ROSSMANN Drogeriemarkt",
      "street": "Vincent-van-Gogh-Str. 18 A",
      "zip": "13057",
      "city": "Berlin"
    },
    "location": {
      "lat": 52.565657,
      "lon": 13.522728
    }
  },
  "2524": {
    "address": {
      "name": "ROSSMANN Drogeriemarkt",
      "street": "Bahnhofstr. 33-38",
      "zip": "12555",
      "city": "Berlin"
    },
    "location": {
      "lat": 52.45552365,
      "lon": 13.5766883
    }
  },
  "2525": {
    "address": {
      "name": "ROSSMANN Drogeriemarkt",
      "street": "Tauentzienstr. 8",
      "zip": "10789",
      "city": "Berlin"
    },
    "location": {
      "lat": 52.503645,
      "lon": 13.338698
    }
  },
  "2570": {
    "address": {
      "name": "ROSSMANN Drogeriemarkt",
      "street": "Rosenthaler Weg 78",
      "zip": "13127",
      "city": "Berlin"
    },
    "location": {
      "lat": 52.607822,
      "lon": 13.428264
    }
  },
  "2571": {
    "address": {
      "name": "ROSSMANN Drogeriemarkt",
      "street": "Hauptstr. 9-9d",
      "zip": "13055",
      "city": "Berlin"
    },
    "location": {
      "lat": 52.548271,
      "lon": 13.50345
    }
  },
  "2590": {
    "address": {
      "name": "ROSSMANN Drogeriemarkt",
      "street": "Karl-Marx-Str. 66",
      "zip": "12043",
      "city": "Berlin"
    },
    "location": {
      "lat": 52.482171,
      "lon": 13.432981
    }
  },
  "2794": {
    "address": {
      "name": "ROSSMANN Drogeriemarkt",
      "street": "Oraniendamm 6-10",
      "zip": "13469",
      "city": "Berlin"
    },
    "location": {
      "lat": 52.60901545,
      "lon": 13.3214772
    }
  },
  "2832": {
    "address": {
      "name": "ROSSMANN Drogeriemarkt",
      "street": "Eichelmatenweg 1",
      "zip": "14089",
      "city": "Berlin"
    },
    "location": {
      "lat": 52.454993,
      "lon": 13.143382
    }
  },
  "2876": {
    "address": {
      "name": "ROSSMANN Drogeriemarkt",
      "street": "Kurfürstendamm 143",
      "zip": "10709",
      "city": "Berlin"
    },
    "location": {
      "lat": 52.498034,
      "lon": 13.29818
    }
  },
  "3039": {
    "address": {
      "name": "ROSSMANN Drogeriemarkt",
      "street": "Tempelhofer Damm 198-200",
      "zip": "12099",
      "city": "Berlin"
    },
    "location": {
      "lat": 52.458765,
      "lon": 13.383039
    }
  },
  "3080": {
    "address": {
      "name": "ROSSMANN Drogeriemarkt",
      "street": "Marzahner Promenade 1 a",
      "zip": "12679",
      "city": "Berlin"
    },
    "location": {
      "lat": 52.54272,
      "lon": 13.542385
    }
  },
  "3082": {
    "address": {
      "name": "ROSSMANN Drogeriemarkt",
      "street": "Grenzallee 4 M",
      "zip": "12057",
      "city": "Berlin"
    },
    "location": {
      "lat": 52.469955,
      "lon": 13.46328
    }
  },
  "3083": {
    "address": {
      "name": "ROSSMANN Drogeriemarkt",
      "street": "Neumannstr. 13",
      "zip": "13189",
      "city": "Berlin"
    },
    "location": {
      "lat": 52.560908,
      "lon": 13.422491
    }
  },
  "3100": {
    "address": {
      "name": "ROSSMANN Drogeriemarkt",
      "street": "Wilmersdorfer Str. 117",
      "zip": "10627",
      "city": "Berlin"
    },
    "location": {
      "lat": 52.507544,
      "lon": 13.306621
    }
  },
  "3129": {
    "address": {
      "name": "ROSSMANN Drogeriemarkt",
      "street": "Fehrbelliner Platz 5",
      "zip": "10707",
      "city": "Berlin"
    },
    "location": {
      "lat": 52.490779,
      "lon": 13.312895
    }
  },
  "3228": {
    "address": {
      "name": "ROSSMANN Drogeriemarkt",
      "street": "Streitstr. 17-18",
      "zip": "13587",
      "city": "Berlin"
    },
    "location": {
      "lat": 52.55956865,
      "lon": 13.2084234
    }
  },
  "3276": {
    "address": {
      "name": "ROSSMANN Drogeriemarkt",
      "street": "Kottbusser Damm 4",
      "zip": "10967",
      "city": "Berlin"
    },
    "location": {
      "lat": 52.4947,
      "lon": 13.420708
    }
  },
  "3300": {
    "address": {
      "name": "ROSSMANN Drogeriemarkt",
      "street": "Schloßstr. 95",
      "zip": "12163",
      "city": "Berlin"
    },
    "location": {
      "lat": 52.458469,
      "lon": 13.322554
    }
  },
  "3303": {
    "address": {
      "name": "ROSSMANN Drogeriemarkt",
      "street": "Johannisthaler Chaussee 295-327",
      "zip": "12351",
      "city": "Berlin"
    },
    "location": {
      "lat": 52.43335045,
      "lon": 13.46308705
    }
  },
  "3459": {
    "address": {
      "name": "ROSSMANN Drogeriemarkt",
      "street": "Rosenthaler Str. 43-45",
      "zip": "10178",
      "city": "Berlin"
    },
    "location": {
      "lat": 52.5266187,
      "lon": 13.40328605
    }
  },
  "3462": {
    "address": {
      "name": "ROSSMANN Drogeriemarkt",
      "street": "Siriusstr. 1",
      "zip": "12524",
      "city": "Berlin"
    },
    "location": {
      "lat": 52.402295,
      "lon": 13.523639
    }
  },
  "3473": {
    "address": {
      "name": "ROSSMANN Drogeriemarkt",
      "street": "Ludolfingerplatz 1",
      "zip": "13465",
      "city": "Berlin"
    },
    "location": {
      "lat": 52.632667,
      "lon": 13.289269
    }
  },
  "3474": {
    "address": {
      "name": "ROSSMANN Drogeriemarkt",
      "street": "Invalidenstr. 73 ",
      "zip": "10557",
      "city": "Berlin"
    },
    "location": {
      "lat": 52.52706,
      "lon": 13.372112
    }
  },
  "3479": {
    "address": {
      "name": "ROSSMANN Drogeriemarkt",
      "street": "Bismarckstr. 16 F ",
      "zip": "12169",
      "city": "Berlin"
    },
    "location": {
      "lat": 52.457899,
      "lon": 13.338894
    }
  },
  "3557": {
    "address": {
      "name": "ROSSMANN Drogeriemarkt",
      "street": "Teltower Damm 29",
      "zip": "14169",
      "city": "Berlin"
    },
    "location": {
      "lat": 52.432289,
      "lon": 13.259275
    }
  },
  "3558": {
    "address": {
      "name": "ROSSMANN Drogeriemarkt",
      "street": "Breite Str. 25",
      "zip": "14199",
      "city": "Berlin"
    },
    "location": {
      "lat": 52.475509,
      "lon": 13.290774
    }
  },
  "3559": {
    "address": {
      "name": "ROSSMANN Drogeriemarkt",
      "street": "Wiltbergstr. 21",
      "zip": "13125",
      "city": "Berlin"
    },
    "location": {
      "lat": 52.635751,
      "lon": 13.493755
    }
  },
  "3560": {
    "address": {
      "name": "ROSSMANN Drogeriemarkt",
      "street": "Annenstr. 49/50",
      "zip": "10179",
      "city": "Berlin"
    },
    "location": {
      "lat": 52.5087156,
      "lon": 13.41318305
    }
  },
  "3581": {
    "address": {
      "name": "ROSSMANN Drogeriemarkt",
      "street": "Alfred-Kowalke-Str. 2-4",
      "zip": "10315",
      "city": "Berlin"
    },
    "location": {
      "lat": 52.507668,
      "lon": 13.524344
    }
  },
  "3622": {
    "address": {
      "name": "ROSSMANN Drogeriemarkt",
      "street": "Grunewaldstr. 48",
      "zip": "10825",
      "city": "Berlin"
    },
    "location": {
      "lat": 52.488545,
      "lon": 13.338572
    }
  },
  "3623": {
    "address": {
      "name": "ROSSMANN Drogeriemarkt",
      "street": "Heerstr. 11-13",
      "zip": "14052",
      "city": "Berlin"
    },
    "location": {
      "lat": 52.514877,
      "lon": 13.2516085
    }
  },
  "3630": {
    "address": {
      "name": "ROSSMANN Drogeriemarkt",
      "street": "Schloßstr. 1",
      "zip": "12163",
      "city": "Berlin"
    },
    "location": {
      "lat": 52.464396,
      "lon": 13.327365
    }
  },
  "3694": {
    "address": {
      "name": "ROSSMANN Drogeriemarkt",
      "street": "Hildburghauser Str. 29A",
      "zip": "12279",
      "city": "Berlin"
    },
    "location": {
      "lat": 52.412784,
      "lon": 13.353342
    }
  },
  "3831": {
    "address": {
      "name": "ROSSMANN Drogeriemarkt",
      "street": "Ruppiner Chaussee 221",
      "zip": "13503",
      "city": "Berlin"
    },
    "location": {
      "lat": 52.613258,
      "lon": 13.246293
    }
  },
  "3934": {
    "address": {
      "name": "ROSSMANN Drogeriemarkt",
      "street": "Potsdamer Str. 121",
      "zip": "10783",
      "city": "Berlin"
    },
    "location": {
      "lat": 52.498424,
      "lon": 13.362621
    }
  }
}