{
  "1000": {
    "address": {
      "name": "dm-drogerie markt",
      "street": "Kurfürstendamm 34",
      "zip": "10719",
      "city": "Berlin"
    },
    "location": {
      "lat": 52.502553,
      "lon": 13.324203
    }
  },
  "1018": {
    "address": {
      "name": "dm-drogerie markt",
      "street": "Müllerstraße 40b",
      "zip": "13353",
      "city": "Berlin"
    },
    "location": {
      "lat": 52.550064,
      "lon": 13.353203
    }
  },
  "1043": {
    "address": {
      "name": "dm-drogerie markt",
      "street": "Tauentzienstraße 2-3",
      "zip": "10789",
      "city": "Berlin"
    },
    "location": {
      "lat": 52.5025484,
      "lon": 13.3413897
    }
  },
  "1049": {
    "address": {
      "name": "dm-drogerie markt",
      "street": "Marzahner Promenade 1",
      "streetAdditional": " Eastgate",
      "district": "Marzahn",
      "zip": "12679",
      "city": "Berlin"
    },
    "location": {
      "lat": 52.544163,
      "lon": 13.544122
    }
  },
  "1058": {
    "address": {
      "name": "dm-drogerie markt",
      "street": "Walther-Schreiber-Platz 1",
      "streetAdditional": "im Schloss-Straßen-Center",
      "district": "Steglitz",
      "zip": "12161",
      "city": "Berlin"
    },
    "location": {
      "lat": 52.465517,
      "lon": 13.326274
    }
  },
  "1064": {
    "address": {
      "name": "dm-drogerie markt",
      "street": "Frankfurter Allee 111",
      "streetAdditional": "im Ring-Center 1",
      "zip": "10247",
      "city": "Berlin"
    },
    "location": {
      "lat": 52.5145821,
      "lon": 13.4742554
    }
  },
  "1121": {
    "address": {
      "name": "dm-drogerie markt",
      "street": "Turmstraße 59",
      "streetAdditional": "neben Rewe",
      "zip": "10551",
      "city": "Berlin"
    },
    "location": {
      "lat": 52.5275126,
      "lon": 13.32943
    }
  },
  "1150": {
    "address": {
      "name": "dm-drogerie markt",
      "street": "Klosterstraße 3",
      "streetAdditional": "in den Spandau-Arcaden",
      "district": "Spandau",
      "zip": "13581",
      "city": "Berlin"
    },
    "location": {
      "lat": 52.5338726,
      "lon": 13.1971154
    }
  },
  "1162": {
    "address": {
      "name": "dm-drogerie markt",
      "street": "Hasenheide 107-108",
      "streetAdditional": "bei Huxleys Neue Welt",
      "zip": "10967",
      "city": "Berlin"
    },
    "location": {
      "lat": 52.4860673,
      "lon": 13.4217192
    }
  },
  "1163": {
    "address": {
      "name": "dm-drogerie markt",
      "street": "Badstraße 4",
      "streetAdditional": "im Gesundbrunnen-Center",
      "zip": "13357",
      "city": "Berlin"
    },
    "location": {
      "lat": 52.549735,
      "lon": 13.387574
    }
  },
  "1165": {
    "address": {
      "name": "dm-drogerie markt",
      "street": "Alexanderplatz 1",
      "streetAdditional": "bei C&A",
      "zip": "10178",
      "city": "Berlin"
    },
    "location": {
      "lat": 52.5212157,
      "lon": 13.4124941
    }
  },
  "1173": {
    "address": {
      "name": "dm-drogerie markt",
      "street": "Neuköllner Straße 344",
      "zip": "12355",
      "city": "Berlin"
    },
    "location": {
      "lat": 52.415673,
      "lon": 13.49588
    }
  },
  "1196": {
    "address": {
      "name": "dm-drogerie markt",
      "street": "General-Pape-Straße 1",
      "streetAdditional": "im Bahnhof Südkreuz",
      "district": "Tempelhof",
      "zip": "12101",
      "city": "Berlin"
    },
    "location": {
      "lat": 52.4745342,
      "lon": 13.3651701
    }
  },
  "1257": {
    "address": {
      "name": "dm-drogerie markt",
      "street": "Greifswalder Straße 89",
      "zip": "10409",
      "city": "Berlin"
    },
    "location": {
      "lat": 52.542766,
      "lon": 13.441193
    }
  },
  "1280": {
    "address": {
      "name": "dm-drogerie markt",
      "street": "Teltower Damm 15",
      "district": "Zehlendorf",
      "zip": "14169",
      "city": "Berlin"
    },
    "location": {
      "lat": 52.433581,
      "lon": 13.259984
    }
  },
  "1289": {
    "address": {
      "name": "dm-drogerie markt",
      "street": "Heerstraße 560",
      "zip": "13591",
      "city": "Berlin"
    },
    "location": {
      "lat": 52.5248388,
      "lon": 13.1423826
    }
  },
  "1365": {
    "address": {
      "name": "dm-drogerie markt",
      "street": "Wilmersdorfer Straße 66a",
      "zip": "10627",
      "city": "Berlin"
    },
    "location": {
      "lat": 52.505765,
      "lon": 13.306771
    }
  },
  "1404": {
    "address": {
      "name": "dm-drogerie markt",
      "street": "Hermannstraße 158a",
      "streetAdditional": "im Hermann-Quartier",
      "district": "Neukölln",
      "zip": "12051",
      "city": "Berlin"
    },
    "location": {
      "lat": 52.4673928,
      "lon": 13.4317144
    }
  },
  "1405": {
    "address": {
      "name": "dm-drogerie markt",
      "street": "Wilmersdorfer Straße 46",
      "streetAdditional": "Wilma Shoppen",
      "zip": "10627",
      "city": "Berlin"
    },
    "location": {
      "lat": 52.5087762,
      "lon": 13.3052378
    }
  },
  "1439": {
    "address": {
      "name": "dm-drogerie markt",
      "street": "Glarner Straße 53",
      "district": "Lichterfelde",
      "zip": "12205",
      "city": "Berlin"
    },
    "location": {
      "lat": 52.4277383,
      "lon": 13.3033497
    }
  },
  "1446": {
    "address": {
      "name": "dm-drogerie markt",
      "street": "Rummelsburger Straße 16",
      "streetAdditional": "Ecke Edisonstraße",
      "zip": "12459",
      "city": "Berlin"
    },
    "location": {
      "lat": 52.4687686,
      "lon": 13.5137385
    }
  },
  "1467": {
    "address": {
      "name": "dm-drogerie markt",
      "street": "Karl-Marx-Straße 92-98",
      "district": "Neukölln",
      "zip": "12043",
      "city": "Berlin"
    },
    "location": {
      "lat": 52.4800091,
      "lon": 13.4360649
    }
  },
  "1491": {
    "address": {
      "name": "dm-drogerie markt",
      "street": "Alexanderplatz 3",
      "streetAdditional": "bei Saturn",
      "zip": "10178",
      "city": "Berlin"
    },
    "location": {
      "lat": 52.5220469,
      "lon": 13.415341
    }
  },
  "1531": {
    "address": {
      "name": "dm-drogerie markt",
      "street": "Große-Leege-Straße 96",
      "zip": "13055",
      "city": "Berlin"
    },
    "location": {
      "lat": 52.5435536,
      "lon": 13.4977309
    }
  },
  "1616": {
    "address": {
      "name": "dm-drogerie markt",
      "street": "Henriette-Herz-Platz 4",
      "streetAdditional": "Hackescher Markt",
      "zip": "10178",
      "city": "Berlin"
    },
    "location": {
      "lat": 52.5226063,
      "lon": 13.4035069
    }
  },
  "1623": {
    "address": {
      "name": "dm-drogerie markt",
      "street": "Neue Grottkauer Straße 23",
      "zip": "12619",
      "city": "Berlin"
    },
    "location": {
      "lat": 52.5299586,
      "lon": 13.5953827
    }
  },
  "1628": {
    "address": {
      "name": "dm-drogerie markt",
      "street": "Bergmannstraße 102",
      "district": "Kreuzberg",
      "zip": "10961",
      "city": "Berlin"
    },
    "location": {
      "lat": 52.48987,
      "lon": 13.3895964
    }
  },
  "1650": {
    "address": {
      "name": "dm-drogerie markt",
      "street": "Falkenseer Chaussee 241",
      "zip": "13583",
      "city": "Berlin"
    },
    "location": {
      "lat": 52.548489,
      "lon": 13.1785335
    }
  },
  "1684": {
    "address": {
      "name": "dm-drogerie markt",
      "street": "Friedrichstraße 100",
      "streetAdditional": "S+U-Bahnhof Friedrichstraße",
      "zip": "10117",
      "city": "Berlin"
    },
    "location": {
      "lat": 52.5208313,
      "lon": 13.3883786
    }
  },
  "1685": {
    "address": {
      "name": "dm-drogerie markt",
      "street": "Bahnhofstraße 25",
      "streetAdditional": "Elcknerplatz",
      "district": "Köpenick",
      "zip": "12555",
      "city": "Berlin"
    },
    "location": {
      "lat": 52.4579193,
      "lon": 13.5790353
    }
  },
  "1737": {
    "address": {
      "name": "dm-drogerie markt",
      "street": "Kurt-Schumacher-Damm 1",
      "streetAdditional": "im EKZ Der Clou",
      "zip": "13405",
      "city": "Berlin"
    },
    "location": {
      "lat": 52.5636391,
      "lon": 13.3278157
    }
  },
  "1764": {
    "address": {
      "name": "dm-drogerie markt",
      "street": "Garbatyplatz 2",
      "streetAdditional": "Garbatyplatz",
      "zip": "13187",
      "city": "Berlin"
    },
    "location": {
      "lat": 52.5674559,
      "lon": 13.4118534
    }
  },
  "1845": {
    "address": {
      "name": "dm-drogerie markt",
      "street": "Schnellerstraße 74",
      "zip": "12439",
      "city": "Berlin"
    },
    "location": {
      "lat": 52.4521132,
      "lon": 13.5293036
    }
  },
  "1850": {
    "address": {
      "name": "dm-drogerie markt",
      "street": "Oberfeldstraße 138",
      "district": "Biesdorf",
      "zip": "12683",
      "city": "Berlin"
    },
    "location": {
      "lat": 52.5248033,
      "lon": 13.5572026
    }
  },
  "1878": {
    "address": {
      "name": "dm-drogerie markt",
      "street": "Gartenfelder Straße 95",
      "district": "Haselhorst",
      "zip": "13599",
      "city": "Berlin"
    },
    "location": {
      "lat": 52.5428439,
      "lon": 13.2401005
    }
  },
  "1894": {
    "address": {
      "name": "dm-drogerie markt",
      "street": "Badstraße 16",
      "district": "Gesundbrunnen",
      "zip": "13357",
      "city": "Berlin"
    },
    "location": {
      "lat": 52.5512474,
      "lon": 13.3840786
    }
  },
  "1895": {
    "address": {
      "name": "dm-drogerie markt",
      "street": "Kaiser-Wilhelm-Straße 76-78",
      "district": "Lankwitz",
      "zip": "12247",
      "city": "Berlin"
    },
    "location": {
      "lat": 52.436292,
      "lon": 13.3453889
    }
  },
  "1900": {
    "address": {
      "name": "dm-drogerie markt",
      "street": "Hermannplatz 1",
      "streetAdditional": "im Karstadt (UG)",
      "zip": "10967",
      "city": "Berlin"
    },
    "location": {
      "lat": 52.4875756,
      "lon": 13.424674
    }
  },
  "1901": {
    "address": {
      "name": "dm-drogerie markt",
      "street": "Massower Straße 5",
      "district": "Friedrichsfelde",
      "zip": "10315",
      "city": "Berlin"
    },
    "location": {
      "lat": 52.5073179,
      "lon": 13.5122631
    }
  },
  "1910": {
    "address": {
      "name": "dm-drogerie markt",
      "street": "Breisgauer Straße 5",
      "district": "Zehlendorf",
      "zip": "14129",
      "city": "Berlin"
    },
    "location": {
      "lat": 52.4387754,
      "lon": 13.2154135
    }
  },
  "1923": {
    "address": {
      "name": "dm-drogerie markt",
      "street": "Revaler Straße 2",
      "district": "Friedrichshain",
      "zip": "10243",
      "city": "Berlin"
    },
    "location": {
      "lat": 52.5085656,
      "lon": 13.4495837
    }
  },
  "1929": {
    "address": {
      "name": "dm-drogerie markt",
      "street": "Turmstraße 29",
      "streetAdditional": "U-Bahnhof Turmstraße",
      "zip": "10551",
      "city": "Berlin"
    },
    "location": {
      "lat": 52.5265344,
      "lon": 13.3414958
    }
  },
  "1944": {
    "address": {
      "name": "dm-drogerie markt",
      "street": "Schloßstraße 15",
      "streetAdditional": "im Boulevard Berlin",
      "district": "Steglitz",
      "zip": "12163",
      "city": "Berlin"
    },
    "location": {
      "lat": 52.4627657,
      "lon": 13.325958
    }
  },
  "1954": {
    "address": {
      "name": "dm-drogerie markt",
      "street": "Rigaer Straße 67",
      "district": "Friedrichshain",
      "zip": "10247",
      "city": "Berlin"
    },
    "location": {
      "lat": 52.5159452,
      "lon": 13.4682931
    }
  },
  "1975": {
    "address": {
      "name": "dm-drogerie markt",
      "street": "Baumschulenstraße 86",
      "district": "Baumschulenweg",
      "zip": "12437",
      "city": "Berlin"
    },
    "location": {
      "lat": 52.4651667,
      "lon": 13.4862826
    }
  },
  "1994": {
    "address": {
      "name": "dm-drogerie markt",
      "street": "Hubertusdamm 56",
      "district": "Karow",
      "zip": "13125",
      "city": "Berlin"
    },
    "location": {
      "lat": 52.6163103,
      "lon": 13.471994
    }
  },
  "1995": {
    "address": {
      "name": "dm-drogerie markt",
      "street": "Goethestraße 3",
      "streetAdditional": "Ecke Ostseestraße",
      "zip": "10409",
      "city": "Berlin"
    },
    "location": {
      "lat": 52.550445,
      "lon": 13.4345263
    }
  },
  "1996": {
    "address": {
      "name": "dm-drogerie markt",
      "street": "Ollenhauerstraße 105b",
      "zip": "13403",
      "city": "Berlin"
    },
    "location": {
      "lat": 52.5699282,
      "lon": 13.3298207
    }
  },
  "2051": {
    "address": {
      "name": "dm-drogerie markt",
      "street": "Müllerstraße 153a-154",
      "streetAdditional": "Leopoldplatz",
      "zip": "13353",
      "city": "Berlin"
    },
    "location": {
      "lat": 52.5458714,
      "lon": 13.3596308
    }
  },
  "2054": {
    "address": {
      "name": "dm-drogerie markt",
      "street": "Heinrich-Dathe-Platz 1",
      "streetAdditional": "direkt beim Tierpark Friedrichsfelde",
      "zip": "10319",
      "city": "Berlin"
    },
    "location": {
      "lat": 52.4986499,
      "lon": 13.5217529
    }
  },
  "2060": {
    "address": {
      "name": "dm-drogerie markt",
      "street": "Schönhauser Allee 112",
      "zip": "10439",
      "city": "Berlin"
    },
    "location": {
      "lat": 52.550991,
      "lon": 13.4135899
    }
  },
  "2074": {
    "address": {
      "name": "dm-drogerie markt",
      "street": "Oraniendamm 45",
      "zip": "13469",
      "city": "Berlin"
    },
    "location": {
      "lat": 52.610882,
      "lon": 13.3184693
    }
  },
  "2094": {
    "address": {
      "name": "dm-drogerie markt",
      "street": "Tempelhofer Damm 191",
      "streetAdditional": "im Karstadt",
      "district": "Tempelhof",
      "zip": "12099",
      "city": "Berlin"
    },
    "location": {
      "lat": 52.4597798,
      "lon": 13.3849569
    }
  },
  "2141": {
    "address": {
      "name": "dm-drogerie markt",
      "street": "Alte Potsdamer Straße 7",
      "streetAdditional": "Eingang bei Brüder-Grimm-Gasse",
      "zip": "10785",
      "city": "Berlin"
    },
    "location": {
      "lat": 52.5065707,
      "lon": 13.3734736
    }
  },
  "2151": {
    "address": {
      "name": "dm-drogerie markt",
      "street": "Invalidenstraße 119",
      "zip": "10115",
      "city": "Berlin"
    },
    "location": {
      "lat": 52.5308054,
      "lon": 13.3845796
    }
  },
  "2186": {
    "address": {
      "name": "dm-drogerie markt",
      "street": "Semmelweisstraße 104a",
      "streetAdditional": "im Wegedorn-Zentrum",
      "zip": "12524",
      "city": "Berlin"
    },
    "location": {
      "lat": 52.4256694,
      "lon": 13.5269625
    }
  },
  "2187": {
    "address": {
      "name": "dm-drogerie markt",
      "street": "Prager Platz 1-3",
      "streetAdditional": "Prager Passage",
      "zip": "10779",
      "city": "Berlin"
    },
    "location": {
      "lat": 52.4935119,
      "lon": 13.3329294
    }
  },
  "2188": {
    "address": {
      "name": "dm-drogerie markt",
      "street": "Clayallee 342",
      "zip": "14169",
      "city": "Berlin"
    },
    "location": {
      "lat": 52.4367587,
      "lon": 13.2617987
    }
  },
  "2189": {
    "address": {
      "name": "dm-drogerie markt",
      "street": "Am Borsigturm 2",
      "streetAdditional": "in den Hallen am Borsigturm",
      "zip": "13507",
      "city": "Berlin"
    },
    "location": {
      "lat": 52.5838469,
      "lon": 13.2853469
    }
  },
  "2192": {
    "address": {
      "name": "dm-drogerie markt",
      "street": "Schönhauser Allee 80",
      "streetAdditional": "Schönhauser Allee Arcaden",
      "zip": "10439",
      "city": "Berlin"
    },
    "location": {
      "lat": 52.5500266,
      "lon": 13.4142339
    }
  },
  "2205": {
    "address": {
      "name": "dm-drogerie markt",
      "street": "Mehrower Allee 20",
      "streetAdditional": "im Plaza Marzahn",
      "zip": "12687",
      "city": "Berlin"
    },
    "location": {
      "lat": 52.5558321,
      "lon": 13.5588146
    }
  },
  "2237": {
    "address": {
      "name": "dm-drogerie markt",
      "street": "Schloßstr. 33-36",
      "streetAdditional": "im EKZ Das Schloss",
      "district": "Steglitz",
      "zip": "12163",
      "city": "Berlin"
    },
    "location": {
      "lat": 52.4575659,
      "lon": 13.3209079
    }
  },
  "2246": {
    "address": {
      "name": "dm-drogerie markt",
      "street": "Joachim-Gottschalk-Weg 21",
      "streetAdditional": "im Wutzky Center",
      "zip": "12353",
      "city": "Berlin"
    },
    "location": {
      "lat": 52.422711,
      "lon": 13.4749174
    }
  },
  "2265": {
    "address": {
      "name": "dm-drogerie markt",
      "street": "An der Schule 68",
      "streetAdditional": "Mahlsdorfer Märkte",
      "zip": "12623",
      "city": "Berlin"
    },
    "location": {
      "lat": 52.5053228,
      "lon": 13.6137066
    }
  },
  "2286": {
    "address": {
      "name": "dm-drogerie markt",
      "street": "Breite Straße 18-23",
      "streetAdditional": "Rathaus Center Pankow",
      "zip": "13187",
      "city": "Berlin"
    },
    "location": {
      "lat": 52.5699495,
      "lon": 13.4048063
    }
  },
  "2329": {
    "address": {
      "name": "dm-drogerie markt",
      "street": "Müllerstraße 35",
      "zip": "13353",
      "city": "Berlin"
    },
    "location": {
      "lat": 52.5490782,
      "lon": 13.3548822
    }
  },
  "2339": {
    "address": {
      "name": "dm-drogerie markt",
      "street": "Luisenstraße 48-52",
      "zip": "10117",
      "city": "Berlin"
    },
    "location": {
      "lat": 52.5236909,
      "lon": 13.379644
    }
  },
  "2340": {
    "address": {
      "name": "dm-drogerie markt",
      "street": "Allee der Kosmonauten 194",
      "streetAdditional": "Nahversorgungszentrum \"Am Anger\"",
      "zip": "12685",
      "city": "Berlin"
    },
    "location": {
      "lat": 52.5414314,
      "lon": 13.5636773
    }
  },
  "2365": {
    "address": {
      "name": "dm-drogerie markt",
      "street": "Dörpfeldstraße 33-35",
      "zip": "12489",
      "city": "Berlin"
    },
    "location": {
      "lat": 52.4375036,
      "lon": 13.5475743
    }
  },
  "2416": {
    "address": {
      "name": "dm-drogerie markt",
      "street": "Hauptstraße 141-144",
      "zip": "10827",
      "city": "Berlin"
    },
    "location": {
      "lat": 52.485327,
      "lon": 13.3552069
    }
  },
  "2418": {
    "address": {
      "name": "dm-drogerie markt",
      "street": "Stromstraße 14",
      "streetAdditional": "Im Schultheiss-Quartier",
      "zip": "10551",
      "city": "Berlin"
    },
    "location": {
      "lat": 52.5264817,
      "lon": 13.3434068
    }
  },
  "2421": {
    "address": {
      "name": "dm-drogerie markt",
      "street": "Friedrichstraße 191",
      "zip": "10117",
      "city": "Berlin"
    },
    "location": {
      "lat": 52.5104669,
      "lon": 13.3895342
    }
  },
  "2440": {
    "address": {
      "name": "dm-drogerie markt",
      "street": "Storkower Straße 207",
      "streetAdditional": "Ecke Franz-Jacob-Straße",
      "zip": "10369",
      "city": "Berlin"
    },
    "location": {
      "lat": 52.525202,
      "lon": 13.4670324
    }
  },
  "2565": {
    "address": {
      "name": "dm-drogerie markt",
      "street": "Prerower Platz 1",
      "streetAdditional": "Im Linden-Center",
      "district": "Hohenschönhausen",
      "zip": "13051",
      "city": "Berlin"
    },
    "location": {
      "lat": 52.5644615,
      "lon": 13.5073809
    }
  },
  "2578": {
    "address": {
      "name": "dm-drogerie markt",
      "street": "Berkaer Straße 2-3",
      "district": "Schmargendorf",
      "zip": "14199",
      "city": "Berlin"
    },
    "location": {
      "lat": 52.4763095,
      "lon": 13.2895722
    }
  },
  "2606": {
    "address": {
      "name": "dm-drogerie markt",
      "street": "Tamara-Danz-Straße 11",
      "streetAdditional": "East Side Mall",
      "district": "Friedrichshain",
      "zip": "10243",
      "city": "Berlin"
    },
    "location": {
      "lat": 52.5057706,
      "lon": 13.446656
    }
  },
  "2608": {
    "address": {
      "name": "dm-drogerie markt",
      "street": "Siemensdamm 43/44",
      "district": "Siemensstadt",
      "zip": "13629",
      "city": "Berlin"
    },
    "location": {
      "lat": 52.5368014,
      "lon": 13.2742905
    }
  },
  "2728": {
    "address": {
      "name": "dm-drogerie markt",
      "street": "Landsberger Allee 117",
      "streetAdditional": "im Forum Landsberger Allee",
      "district": "Prenzlauer Berg",
      "zip": "10407",
      "city": "Berlin"
    },
    "location": {
      "lat": 52.5289815,
      "lon": 13.4567882
    }
  },
  "2781": {
    "address": {
      "name": "dm-drogerie markt",
      "street": "Hardenbergplatz 11",
      "streetAdditional": "Bahnhof Zoologischer Garten",
      "district": "Chartlottenburg",
      "zip": "10623",
      "city": "Berlin"
    },
    "location": {
      "lat": 52.5072028,
      "lon": 13.3326579
    }
  },
  "2791": {
    "address": {
      "name": "dm-drogerie markt",
      "street": "Frankfurter Allee 57/59",
      "district": "Friedrichshain",
      "zip": "10247",
      "city": "Berlin"
    },
    "location": {
      "lat": 52.5148553,
      "lon": 13.4655313
    }
  },
  "2793": {
    "address": {
      "name": "dm-drogerie markt",
      "street": "Albrechtstraße 3",
      "streetAdditional": "Am Steglitzer Kreisel",
      "district": "Steglitz",
      "zip": "12165",
      "city": "Berlin"
    },
    "location": {
      "lat": 52.4563453,
      "lon": 13.322196
    }
  },
  "2809": {
    "address": {
      "name": "dm-drogerie markt",
      "street": "Leipziger Platz 12",
      "streetAdditional": "LP 12 Mall of Berlin",
      "district": "Mitte",
      "zip": "10117",
      "city": "Berlin"
    },
    "location": {
      "lat": 52.5098963,
      "lon": 13.3797602
    }
  },
  "2814": {
    "address": {
      "name": "dm-drogerie markt",
      "street": "Wilmersdorfer Straße 126/127",
      "district": "Charlottenburg",
      "zip": "10627",
      "city": "Berlin"
    },
    "location": {
      "lat": 52.5097813,
      "lon": 13.3060171
    }
  },
  "2815": {
    "address": {
      "name": "dm-drogerie markt",
      "street": "Karl-Marx-Straße 66",
      "streetAdditional": "in den Neukölln Arcaden",
      "district": "Neukölln",
      "zip": "12043",
      "city": "Berlin"
    },
    "location": {
      "lat": 52.4819811,
      "lon": 13.4333257
    }
  },
  "2829": {
    "address": {
      "name": "dm-drogerie markt",
      "street": "Alexanderplatz 2",
      "streetAdditional": "Im Alexanderhaus",
      "district": "Mitte",
      "zip": "10178",
      "city": "Berlin"
    },
    "location": {
      "lat": 52.5203917,
      "lon": 13.4136213
    }
  },
  "2860": {
    "address": {
      "name": "dm-drogerie markt",
      "street": "Mariendorfer Damm 298",
      "streetAdditional": "Fachmarktzentrum Mariendorfer Damm",
      "district": "Mariendorf",
      "zip": "12107",
      "city": "Berlin"
    },
    "location": {
      "lat": 52.4259155,
      "lon": 13.392458
    }
  },
  "2877": {
    "address": {
      "name": "dm-drogerie markt",
      "street": "Chausseestraße 40",
      "streetAdditional": "In den Feuerlandhöfen",
      "district": "Mitte",
      "zip": "10115",
      "city": "Berlin"
    },
    "location": {
      "lat": 52.5338743,
      "lon": 13.3792193
    }
  },
  "2893": {
    "address": {
      "name": "dm-drogerie markt",
      "street": "Wilhelmsruher Damm 140",
      "streetAdditional": "Im Märkischen Zentrum",
      "district": "Märkisches Viertel",
      "zip": "13439",
      "city": "Berlin"
    },
    "location": {
      "lat": 52.5967924,
      "lon": 13.3540155
    }
  },
  "2935": {
    "address": {
      "name": "dm-drogerie markt",
      "street": "Pücklerstraße 34",
      "streetAdditional": "in der Markthalle Neun",
      "district": "Kreuzberg",
      "zip": "10997",
      "city": "Berlin"
    },
    "location": {
      "lat": 52.5019834,
      "lon": 13.431997
    }
  },
  "2937": {
    "address": {
      "name": "dm-drogerie markt",
      "street": "Gorkistraße 11/21",
      "streetAdditional": "Im Tegel-Quartier",
      "district": "Tegel",
      "zip": "13507",
      "city": "Berlin"
    },
    "location": {
      "lat": 52.59013,
      "lon": 13.286615
    }
  },
  "2944": {
    "address": {
      "name": "dm-drogerie markt",
      "street": "Quickborner Straße 72",
      "district": "Märkisches Viertel",
      "zip": "13439",
      "city": "Berlin"
    },
    "location": {
      "lat": 52.6035696,
      "lon": 13.3672925
    }
  },
  "2967": {
    "address": {
      "name": "dm-drogerie markt",
      "street": "Tempelhofer Damm 227",
      "streetAdditional": "Tempelhofer Hafen",
      "district": "Tempelhof",
      "zip": "12099",
      "city": "Berlin"
    },
    "location": {
      "lat": 52.45474,
      "lon": 13.384532
    }
  },
  "3012": {
    "address": {
      "name": "dm-drogerie markt",
      "street": "Heidestraße 40",
      "streetAdditional": "Im Quartier Heidestraße",
      "district": "Moabit",
      "zip": "10557",
      "city": "Berlin"
    },
    "location": {
      "lat": 52.5326312,
      "lon": 13.3656508
    }
  },
  "3018": {
    "address": {
      "name": "dm-drogerie markt",
      "street": "Kurfürstendamm 227",
      "streetAdditional": "Ku´damm-Eck",
      "district": "Charlottenburg",
      "zip": "10719",
      "city": "Berlin"
    },
    "location": {
      "lat": 52.50363,
      "lon": 13.3318958
    }
  },
  "3024": {
    "address": {
      "name": "dm-drogerie markt",
      "street": "Kurfürstenstraße 43",
      "streetAdditional": "neben Rewe",
      "district": "Tiergarten",
      "zip": "10785",
      "city": "Berlin"
    },
    "location": {
      "lat": 52.5007694,
      "lon": 13.3599411
    }
  }
}
